{
  "locations": [
    {
      "name": "Milsons Point",
      "lat": -33.85075,
      "lng": 151.212519
    },
    {
      "name": "Bondi Beach",
      "lat": -33.889967,
      "lng": 151.27644
    },
    {
      "name": "Circular Quay",
      "lat": -33.860178,
      "lng": 151.212706
    },
    {
      "name": "Manly Beach",
      "lat": -33.797151,
      "lng": 151.288784
    },
    {
      "name": "Darling Harbour",
      "lat": -33.873379,
      "lng": 151.20094
    }
  ],
  "updated": "2016-12-01T06:52:08Z"
}